{
    "R1":[
        {"id":72305,"name":"L'Hospitalet de Llobregat","lat":41.3643006165317,"lon":2.10071682929993,"index":0},
        {"id":71801,"name":"Barcelona Sants","lat":41.3792800805419,"lon":2.14069247245789,"index":1},
        {"id":78805,"name":"Plaça Catalunya","lat":41.3877082863745,"lon":2.16939210891724,"index":2},
        {"id":78804,"name":"Arc de Triomf","lat":41.3921755169431,"lon":2.18068957328796,"index":3},
        {"id":79009,"name":"El Clot-Aragó","lat":41.4100816023942,"lon":2.18884348869324,"index":4},
        {"id":79403,"name":"Sant Adrià de Besòs","lat":41.4243466047407,"lon":2.23049283027649,"index":5},
        {"id":79404,"name":"Badalona","lat":41.4457704021816,"lon":2.24911272525787,"index":6},
        {"id":79405,"name":"Montgat","lat":41.4629783169205,"lon":2.27224409580231,"index":7},
        {"id":79406,"name":"Montgat Nord","lat":41.4687387318147,"lon":2.28676557540894,"index":8},
        {"id":79407,"name":"El Masnou","lat":41.476990548851,"lon":2.3104602098465,"index":9},
        {"id":79408,"name":"Ocata","lat":41.479116638367,"lon":2.31994986534119,"index":10},
        {"id":79409,"name":"Premià de Mar","lat":41.4876363728866,"lon":2.35487222671509,"index":11},
        {"id":79410,"name":"Vilassar de Mar","lat":41.5004661041911,"lon":2.38958537578583,"index":12},
        {"id":79412,"name":"Cabrera de Mar-Vilassar de Mar","lat":41.5066650918062,"lon":2.4015212059021,"index":13},
        {"id":79500,"name":"Mataró","lat":41.5333585495729,"lon":2.44558453559875,"index":14},
        {"id":79501,"name":"Sant Andreu de Llavaneres","lat":41.5554327778883,"lon":2.4984884262085,"index":15},
        {"id":79502,"name":"Caldes d'Estrac","lat":41.5684778409529,"lon":2.52609372138977,"index":16},
        {"id":79600,"name":"Arenys de Mar","lat":41.5775395989437,"lon":2.54947185516357,"index":17},
        {"id":79601,"name":"Canet de Mar","lat":41.5865439129697,"lon":2.58132040500641,"index":18},
        {"id":79602,"name":"Sant Pol de Mar","lat":41.6016485978431,"lon":2.62469708919525,"index":19},
        {"id":79603,"name":"Calella","lat":41.6145840630901,"lon":2.66596555709839,"index":20},
        {"id":79604,"name":"Pineda de Mar","lat":41.6224363298092,"lon":2.69392490386963,"index":21},
        {"id":79608,"name":"Santa Susanna","lat":41.6300550821723,"lon":2.71616578102112,"index":22},
        {"id":79605,"name":"Malgrat de Mar","lat":41.6416819684289,"lon":2.74158775806427,"index":23},
        {"id":79606,"name":"Blanes","lat":41.6734086814712,"lon":2.76897311210632,"index":24},
        {"id":79607,"name":"Tordera","lat":41.7070140825123,"lon":2.71952927112579,"index":25},
        {"id":79200,"name":"Maçanet-Massanes","lat":41.7723598898895,"lon":2.67349720001221,"index":26}
    ],
    "R2":[
      {"id":71705,"name":"Castelldefels","lat":41.2787578864195,"lon":1.97941660881043,"index":0},
      {"id":71706,"name":"Gavà","lat":41.3032320004574,"lon":2.01056241989136,"index":1},
      {"id":71709,"name":"Viladecans","lat":41.3093813304715,"lon":2.02766418457031,"index":2},
      {"id":71707,"name":"El Prat de Llobregat","lat":41.3307745444868,"lon":2.08952665328979,"index":3},
      {"id":71708,"name":"Bellvitge","lat":41.3548264690591,"lon":2.11551189422607,"index":4},
      {"id":71801,"name":"Barcelona Sants","lat":41.3791593246702,"lon":2.14084267616272,"index":5},
      {"id":71802,"name":"Barcelona-Passeig de Gràcia","lat":41.3926021012834,"lon":2.16540098190308,"index":6},
      {"id":79009,"name":"El Clot-Aragó","lat":41.4099850434808,"lon":2.18852162361145,"index":7},
      {"id":71004,"name":"Sant Andreu Comtal","lat":41.4360346514472,"lon":2.19348907470703,"index":8},
      {"id":79005,"name":"Montcada i Reixac","lat":41.4842045013557,"lon":2.18814611434937,"index":9},
      {"id":79011,"name":"La Llagosta","lat":41.5104733783503,"lon":2.19979763031006,"index":10},
      {"id":79006,"name":"Mollet-Sant Fost","lat":41.5335352375515,"lon":2.2177791595459,"index":11},
      {"id":79007,"name":"Montmeló","lat":41.5498527007679,"lon":2.24558293819427,"index":12},
      {"id":79100,"name":"Granollers Centre","lat":41.5996549017038,"lon":2.29153990745544,"index":13}
    ],
    "R2N":[
      {"id":72400,"name":"Aeroport","lat":41.304279764776,"lon":2.07347631454468,"index":0},
      {"id":71707,"name":"El Prat de Llobregat","lat":41.3307745444868,"lon":2.08952665328979,"index":1},
      {"id":71708,"name":"Bellvitge","lat":41.3548264690591,"lon":2.11551189422607,"index":2},
      {"id":71801,"name":"Barcelona Sants","lat":41.3791593246702,"lon":2.14084267616272,"index":3},
      {"id":71802,"name":"Barcelona-Passeig de Gràcia","lat":41.3926021012834,"lon":2.16540098190308,"index":4},
      {"id":79009,"name":"El Clot-Aragó","lat":41.4099850434808,"lon":2.18852162361145,"index":5},
      {"id":71004,"name":"Sant Andreu Comtal","lat":41.4360346514472,"lon":2.19348907470703,"index":6},
      {"id":79005,"name":"Montcada i Reixac","lat":41.4842045013557,"lon":2.18814611434937,"index":7},
      {"id":79011,"name":"La Llagosta","lat":41.5104733783503,"lon":2.19979763031006,"index":8},
      {"id":79006,"name":"Mollet-Sant Fost","lat":41.5335352375515,"lon":2.2177791595459,"index":9},
      {"id":79007,"name":"Montmeló","lat":41.5498527007679,"lon":2.24558293819427,"index":10},
      {"id":79100,"name":"Granollers Centre","lat":41.5996549017038,"lon":2.29153990745544,"index":11},
      {"id":79109,"name":"Les Franqueses-Granollers Nord","lat":41.6173673558726,"lon":2.29440450668335,"index":12},
      {"id":79101,"name":"Cardedeu","lat":41.6364541384053,"lon":2.35618114471436,"index":13},
      {"id":79102,"name":"Llinars del Vallès","lat":41.6378974467407,"lon":2.40453600883484,"index":14},
      {"id":79103,"name":"Palautordera","lat":41.6717578030432,"lon":2.45429635047913,"index":15},
      {"id":79104,"name":"Sant Celoni","lat":41.6857087967325,"lon":2.49084949493408,"index":16},
      {"id":79105,"name":"Gualba","lat":41.7179904184743,"lon":2.53897905349731,"index":17},
      {"id":79106,"name":"Riells i Viabrea-Breda","lat":41.7265587466666,"lon":2.56881594657898,"index":18},
      {"id":79107,"name":"Hostalric","lat":41.7478544995546,"lon":2.63160109519958,"index":19},
      {"id":79200,"name":"Maçanet-Massanes","lat":41.7725279219808,"lon":2.67332553863525,"index":20}
    ],
    "R2S":[
      {"id":71600,"name":"Sant Vicenç de Calders","lat":41.186125,"lon":1.52633600000002,"index":16},
      {"id":71601,"name":"Calafell","lat":41.1894011397305,"lon":1.57483220100403,"index":15},
      {"id":71602,"name":"Segur de Calafell","lat":41.1923964670938,"lon":1.6064715385437,"index":14},
      {"id":71603,"name":"Cunit","lat":41.1947780985916,"lon":1.63195252418518,"index":13},
      {"id":71604,"name":"Cubelles","lat":41.2041342457699,"lon":1.67603731155396,"index":12},
      {"id":71700,"name":"Vilanova i la Geltrú","lat":41.2199615747229,"lon":1.73077583312988,"index":11},
      {"id":71701,"name":"Garraf (sitges)","lat":41.2392704096791,"lon":1.80972933769226,"index":10},
      {"id":71703,"name":"Garraf","lat":41.2543391182281,"lon":1.90256595611572,"index":9},
      {"id":71704,"name":"Platja de Castelldefels","lat":41.2670254371119,"lon":1.95696115493774,"index":8},
      {"id":71705,"name":"Castelldefels","lat":41.2787578864195,"lon":1.97941660881043,"index":7},
      {"id":71706,"name":"Gavà","lat":41.3032320004574,"lon":2.01056241989136,"index":6},
      {"id":71709,"name":"Viladecans","lat":41.3093813304715,"lon":2.02766418457031,"index":5},
      {"id":71707,"name":"El Prat de Llobregat","lat":41.3307745444868,"lon":2.08952665328979,"index":4},
      {"id":71708,"name":"Bellvitge","lat":41.3548264690591,"lon":2.11551189422607,"index":3},
      {"id":71801,"name":"Barcelona Sants","lat":41.3791593246702,"lon":2.14084267616272,"index":2},
      {"id":71802,"name":"Barcelona-Passeig de Gràcia","lat":41.3926021012834,"lon":2.16540098190308,"index":1},
      {"id":79400,"name":"Barcelona-Estació de França","lat":41.384343574934,"lon":2.18561410903931,"index":0}
    ],
    "R3":[
      {"id":72305,"name":"L'Hospitalet de Llobregat","lat":41.3642804859339,"lon":2.10064172744751,"index":0},
      {"id":71801,"name":"Barcelona Sants","lat":41.3794813398299,"lon":2.14066028594971,"index":1},
      {"id":78805,"name":"Plaça de Catalunya","lat":41.3876277929184,"lon":2.16943502426147,"index":2},
      {"id":78804,"name":"Arc de Triomf","lat":41.3920064921849,"lon":2.18044281005859,"index":3},
      {"id":78806,"name":"La Sagrera-Meridiana","lat":41.4236547479923,"lon":2.18676209449768,"index":4},
      {"id":78802,"name":"Sant Andreu Arenal","lat":41.4309027882124,"lon":2.18316793441772,"index":5},
      {"id":78801,"name":"Torre del Baró","lat":41.461478836779,"lon":2.18057155609131,"index":6},
      {"id":78800,"name":"Montcada Bifurcació","lat":41.4706600962299,"lon":2.17975616455078,"index":7},
      {"id":77002,"name":"Montcada-Ripollet","lat":41.4966049960637,"lon":2.18203067779541,"index":8},
      {"id":77003,"name":"Santa Perpètua de Mogoda","lat":41.521784435894,"lon":2.1942400932312,"index":9},
      {"id":77004,"name":"Mollet Santa Rosa","lat":41.5366753842946,"lon":2.20595598220825,"index":10},
      {"id":77005,"name":"Parets del Vallès","lat":41.5560911149304,"lon":2.22601890563965,"index":11},
      {"id":77006,"name":"Granollers-Canovelles","lat":41.6113995721596,"lon":2.2766375541687,"index":12},
      {"id":77100,"name":"Les Franqueses del Vallès","lat":41.6297182721418,"lon":2.29491949081421,"index":13},
      {"id":77102,"name":"La Garriga","lat":41.6844828972461,"lon":2.288578748703,"index":14},
      {"id":77103,"name":"Figaró","lat":41.721009483161,"lon":2.27153062820435,"index":15},
      {"id":77104,"name":"Sant Martí de Centelles","lat":41.7604845074976,"lon":2.24904298782349,"index":16},
      {"id":77105,"name":"Centelles","lat":41.7994153850346,"lon":2.22280025482178,"index":17},
      {"id":77106,"name":"Balenyà-Els Hostalets","lat":41.81489,"lon":2.23350000000005,"index":18},
      {"id":77107,"name":"Balenyà-Tona-Seva","lat":41.8420074336879,"lon":2.24734783172607,"index":19},
      {"id":77109,"name":"Vic","lat":41.931069573153,"lon":2.24854946136475,"index":20},
      {"id":77110,"name":"Manlleu","lat":41.999830818024,"lon":2.26910591125488,"index":21},
      {"id":77111,"name":"Torelló","lat":42.0521925240304,"lon":2.26022243499756,"index":22},
      {"id":77112,"name":"Borgonyà","lat":42.0649058430852,"lon":2.24155426025391,"index":23},
      {"id":77113,"name":"Sant Quirze de Besora","lat":42.1048374579478,"lon":2.21744656562805,"index":24},
      {"id":77114,"name":"La Farga de Bebié","lat":42.1303836837075,"lon":2.20390677452087,"index":25},
      {"id":77200,"name":"Ripoll","lat":42.195944930853,"lon":2.19551682472229,"index":26},
      {"id":77301,"name":"Campdevànol","lat":42.2215656382507,"lon":2.16562628746033,"index":27},
      {"id":77303,"name":"Ribes de Freser","lat":42.2990081844244,"lon":2.16529369354248,"index":28},
      {"id":77304,"name":"Planoles","lat":42.3141949106268,"lon":2.09987998008728,"index":29},
      {"id":77305,"name":"Toses","lat":42.3206604556509,"lon":2.01477885246277,"index":30},
      {"id":77306,"name":"La Molina","lat":42.34460495018,"lon":1.95571660995483,"index":31},
      {"id":77307,"name":"Urtx-Alp","lat":42.3766647089176,"lon":1.89662218093872,"index":32},
      {"id":77309,"name":"Puigcerdà","lat":42.4293485751275,"lon":1.92446887493134,"index":33},
      {"id":77310,"name":"La Tor de Querol - Enveig","lat":42.458611,"lon":1.90486199999998,"index":34}
  
    ],
    "R4":[
      {"id":71600,"name":"Sant Vicenç de Calders","lat":41.1862118939351,"lon":1.52534008026123,"index":0},
      {"id":72201,"name":"El Vendrell","lat":41.2209541862453,"lon":1.53810739517212,"index":1},
      {"id":72202,"name":"L'Arboç","lat":41.2735652273779,"lon":1.60036683082581,"index":2},
      {"id":72203,"name":"Els Monjos","lat":41.3147725987483,"lon":1.66051268577576,"index":3},
      {"id":72204,"name":"Vilafranca del Penedès","lat":41.3444931237628,"lon":1.7032778263092,"index":4},
      {"id":72205,"name":"La Granada","lat":41.3709554508141,"lon":1.72529339790344,"index":5},
      {"id":72206,"name":"Lavern-Subirats","lat":41.3958456604543,"lon":1.76810145378113,"index":6},
      {"id":72207,"name":"Sant Sadurní d'Anoia","lat":41.42037626135,"lon":1.79475724931046,"index":7},
      {"id":72208,"name":"Gelida","lat":41.4486212810995,"lon":1.86535835266113,"index":8},
      {"id":72209,"name":"Martorell","lat":41.4789558778921,"lon":1.92618012428284,"index":9},
      {"id":72210,"name":"Castellbisbal","lat":41.4732888163771,"lon":1.967453956604,"index":10},
      {"id":72211,"name":"El Papiol","lat":41.435037,"lon":2.002687,"index":11},
      {"id":72300,"name":"Molins de Rei","lat":41.4099448,"lon":2.0209874,"index":12},
      {"id":72301,"name":"Sant Feliu de Llobregat","lat":41.3830515760724,"lon":2.04805970191956,"index":13},
      {"id":72302,"name":"Sant Joan Despí","lat":41.3685983565694,"lon":2.06032276153564,"index":14},
      {"id":72303,"name":"Cornellà de Llobregat","lat":41.3576370485254,"lon":2.07056879997253,"index":15},
      {"id":72305,"name":"L'Hospitalet de Llobregat","lat":41.3643207471233,"lon":2.10095822811127,"index":16},
      {"id":71801,"name":"Barcelona Sants","lat":41.3792720301574,"lon":2.14077830314636,"index":17},
      {"id":78805,"name":"Plaça Catalunya","lat":41.3876358422685,"lon":2.16923117637634,"index":18},
      {"id":78804,"name":"Arc de Triomf","lat":41.3921111266109,"lon":2.18075394630432,"index":19},
      {"id":78806,"name":"La Sagrera-Meridiana","lat":41.4236306133215,"lon":2.1868371963501,"index":20},
      {"id":79004,"name":"Sant Andreu Arenal","lat":41.4312084591408,"lon":2.18310356140137,"index":21},
      {"id":78801,"name":"Torre del Baró","lat":41.4616316004172,"lon":2.18049645423889,"index":22},
      {"id":78800,"name":"Montcada Bifurcació","lat":41.4710298920514,"lon":2.18021750450134,"index":23},
      {"id":78708,"name":"Montcada i Reixac-Manresa","lat":41.4838749678266,"lon":2.18563556671143,"index":24},
      {"id":78707,"name":"Montcada i Reixac-Santa Maria","lat":41.4812707902568,"lon":2.16714978218079,"index":25},
      {"id":78706,"name":"Cerdanyola del Vallès","lat":41.4926271309533,"lon":2.14765548706055,"index":26},
      {"id":78705,"name":"Barberà del Vallès","lat":41.5135343070341,"lon":2.1183443069458,"index":27},
      {"id":78703,"name":"Sabadell Sud","lat":41.5286681104202,"lon":2.10520148277283,"index":28},
      {"id":78704,"name":"Sabadell Centre","lat":41.5464883639825,"lon":2.1158766746521,"index":29},
      {"id":78709,"name":"Sabadell Nord","lat":41.5618793751107,"lon":2.09624290466309,"index":30},
      {"id":78710,"name":"Terrassa Est","lat":41.5674772,"lon":2.03964293003082,"index":31},
      {"id":78700,"name":"Terrassa Nord","lat":41.5700270180965,"lon":2.01404929161072,"index":32},
      {"id":78610,"name":"Sant Miquel de Gonteres-Viladecavalls","lat":41.5690838706322,"lon":1.97403073310852,"index":33},
      {"id":78609,"name":"Viladecavalls","lat":41.56389832033,"lon":1.95715427398682,"index":34},
      {"id":78607,"name":"Vacarisses-Torreblanca","lat":41.5869010100549,"lon":1.91696405410767,"index":35},
      {"id":78606,"name":"Vacarisses","lat":41.601847161792,"lon":1.89393192529678,"index":36},
      {"id":78605,"name":"Castellbell i el Vilar-Monistrol de Montserrat","lat":41.6285795204351,"lon":1.86904907226563,"index":37},
      {"id":78604,"name":"Sant Vicenç de Castellet","lat":41.6686642954871,"lon":1.86252593994141,"index":38},
      {"id":78600,"name":"Manresa","lat":41.7202727483627,"lon":1.82643949985504,"index":39}
    ],
    "R7":[
      {"id":78802,"name":"Barcelona - Sant Andreu Arenal","lat":41.43085452425,"lon":2.18312501907349,"index":0},
      {"id":78801,"name":"Torre del Baró","lat":41.4614305955553,"lon":2.18063592910767,"index":1},
      {"id":78800,"name":"Montcada Bifurcació","lat":41.4704832366131,"lon":2.1797776222229,"index":2},
      {"id":78708,"name":"Montcada i Reixac - Manresa","lat":41.4840678657055,"lon":2.18546390533447,"index":3},
      {"id":78707,"name":"Montcada i Reixac - Santa Maria","lat":41.4812627525097,"lon":2.16708540916443,"index":4},
      {"id":78706,"name":"Cerdanyola del Vallès","lat":41.4927115124461,"lon":2.14755892753601,"index":5},
      {"id":72503,"name":"Cerdanyola Universitat","lat":41.4969384827467,"lon":2.11510419845581,"index":6}
  
    ],
    "R8":[
      {"id":72209,"name":"Martorell","lat":41.4790362581794,"lon":1.92679166793823,"index":0},
      {"id":72210,"name":"Castellbisbal","lat":41.473249,"lon":1.967626,"index":1},
      {"id":72501,"name":"Rubí","lat":41.4753306232998,"lon":2.03724503517151,"index":2},
      {"id":72502,"name":"Sant Cugat del Vallès","lat":41.4811984504971,"lon":2.07967758178711,"index":3},
      {"id":72503,"name":"Cerdanyola Universitat","lat":41.4970469659964,"lon":2.11492717266083,"index":4},
      {"id":79006,"name":"Mollet-Sant Fost","lat":41.5335432688118,"lon":2.21789717674255,"index":5},
      {"id":79007,"name":"Montmeló","lat":41.5497724083732,"lon":2.24544882774353,"index":6},
      {"id":79100,"name":"Granollers Centre","lat":41.599703039962,"lon":2.29146480560303,"index":7},
      {"id":72508,"name":"Santa Perpètua de Mogoda Riera de Caldes","lat":41.5262184,"lon":2.1865475,"index":8}
    ]
  }