{"R3":[
{"id":72305,"name":"L'Hospitalet de Llobregat","lat":41.3642804859339,"lon":2.10064172744751,"index":0},
{"id":71801,"name":"Barcelona Sants","lat":41.3794813398299,"lon":2.14066028594971,"index":1},
{"id":78805,"name":"Plaça de Catalunya","lat":41.3876277929184,"lon":2.16943502426147,"index":2},
{"id":78804,"name":"Arc de Triomf","lat":41.3920064921849,"lon":2.18044281005859,"index":3},
{"id":78806,"name":"La Sagrera-Meridiana","lat":41.4236547479923,"lon":2.18676209449768,"index":4},
{"id":78802,"name":"Sant Andreu Arenal","lat":41.4309027882124,"lon":2.18316793441772,"index":5},
{"id":78801,"name":"Torre del Baró","lat":41.461478836779,"lon":2.18057155609131,"index":6},
{"id":78800,"name":"Montcada Bifurcació","lat":41.4706600962299,"lon":2.17975616455078,"index":7},
{"id":77002,"name":"Montcada-Ripollet","lat":41.4966049960637,"lon":2.18203067779541,"index":8},
{"id":77003,"name":"Santa Perpètua de Mogoda","lat":41.521784435894,"lon":2.1942400932312,"index":9},
{"id":77004,"name":"Mollet Santa Rosa","lat":41.5366753842946,"lon":2.20595598220825,"index":10},
{"id":77005,"name":"Parets del Vallès","lat":41.5560911149304,"lon":2.22601890563965,"index":11},
{"id":77006,"name":"Granollers-Canovelles","lat":41.6113995721596,"lon":2.2766375541687,"index":12},
{"id":77100,"name":"Les Franqueses del Vallès","lat":41.6297182721418,"lon":2.29491949081421,"index":13},
{"id":77102,"name":"La Garriga","lat":41.6844828972461,"lon":2.288578748703,"index":14},
{"id":77103,"name":"Figaró","lat":41.721009483161,"lon":2.27153062820435,"index":15},
{"id":77104,"name":"Sant Martí de Centelles","lat":41.7604845074976,"lon":2.24904298782349,"index":16},
{"id":77105,"name":"Centelles","lat":41.7994153850346,"lon":2.22280025482178,"index":17},
{"id":77106,"name":"Balenyà-Els Hostalets","lat":41.81489,"lon":2.23350000000005,"index":18},
{"id":77107,"name":"Balenyà-Tona-Seva","lat":41.8420074336879,"lon":2.24734783172607,"index":19},
{"id":77109,"name":"Vic","lat":41.931069573153,"lon":2.24854946136475,"index":20},
{"id":77110,"name":"Manlleu","lat":41.999830818024,"lon":2.26910591125488,"index":21},
{"id":77111,"name":"Torelló","lat":42.0521925240304,"lon":2.26022243499756,"index":22},
{"id":77112,"name":"Borgonyà","lat":42.0649058430852,"lon":2.24155426025391,"index":23},
{"id":77113,"name":"Sant Quirze de Besora","lat":42.1048374579478,"lon":2.21744656562805,"index":24},
{"id":77114,"name":"La Farga de Bebié","lat":42.1303836837075,"lon":2.20390677452087,"index":25},
{"id":77200,"name":"Ripoll","lat":42.195944930853,"lon":2.19551682472229,"index":26},
{"id":77301,"name":"Campdevànol","lat":42.2215656382507,"lon":2.16562628746033,"index":27},
{"id":77303,"name":"Ribes de Freser","lat":42.2990081844244,"lon":2.16529369354248,"index":28},
{"id":77304,"name":"Planoles","lat":42.3141949106268,"lon":2.09987998008728,"index":29},
{"id":77305,"name":"Toses","lat":42.3206604556509,"lon":2.01477885246277,"index":30},
{"id":77306,"name":"La Molina","lat":42.34460495018,"lon":1.95571660995483,"index":31},
{"id":77307,"name":"Urtx-Alp","lat":42.3766647089176,"lon":1.89662218093872,"index":32},
{"id":77309,"name":"Puigcerdà","lat":42.4293485751275,"lon":1.92446887493134,"index":33},
{"id":77310,"name":"La Tor de Querol - Enveig","lat":42.458611,"lon":1.90486199999998,"index":34}
]}
