{"R8":[
{"id":72209,"name":"Martorell","lat":41.4790362581794,"lon":1.92679166793823,"index":0},
{"id":72210,"name":"Castellbisbal","lat":41.473249,"lon":1.967626,"index":1},
{"id":72501,"name":"Rubí","lat":41.4753306232998,"lon":2.03724503517151,"index":2},
{"id":72502,"name":"Sant Cugat del Vallès","lat":41.4811984504971,"lon":2.07967758178711,"index":3},
{"id":72503,"name":"Cerdanyola Universitat","lat":41.4970469659964,"lon":2.11492717266083,"index":4},
{"id":79006,"name":"Mollet-Sant Fost","lat":41.5335432688118,"lon":2.21789717674255,"index":5},
{"id":79007,"name":"Montmeló","lat":41.5497724083732,"lon":2.24544882774353,"index":6},
{"id":79100,"name":"Granollers Centre","lat":41.599703039962,"lon":2.29146480560303,"index":7},
{"id":72508,"name":"Santa Perpètua de Mogoda Riera de Caldes","lat":41.5262184,"lon":2.1865475,"index":8}
]}
